[{
        "name": "高見山",
        "lat": 34.369468,
        "lng": 133.207554,
        "genre": "見る/自然景観",
        "placeId": "79b4e0aec3ed401565cdff00beffaa6102821599"
    },
    {
        "name": "鳴滝山",
        "lat": 34.410772,
        "lng": 133.146991,
        "genre": "見る/自然景観",
        "placeId": "7c98427626c19ac59ffa6a1a8fc86937bcccc63b"
    },
    {
        "name": "観音山",
        "lat": 34.268271,
        "lng": 133.080629,
        "genre": "見る/自然景観",
        "placeId": "f5e73e53e4ae160ec307cb792eb162afc82f3229"
    },
    {
        "name": "因島水軍城",
        "lat": 34.328105,
        "lng": 133.166348,
        "genre": "見る/文化施設",
        "placeId": "044bb85e6ff6fbe732ea57172ea4ea67f4a41517"
    },
    {
        "name": "千光寺",
        "lat": 34.410587,
        "lng": 133.198711,
        "genre": "見る/神社仏閣",
        "placeId": "3fe2756c7083bb6d50dc1c5dfdd783d3fd5174bd"
    },
    {
        "name": "持光寺",
        "lat": 34.40724,
        "lng": 133.195795,
        "genre": "見る/神社仏閣",
        "placeId": "4d0d225b622d44712390b9db7f8ef271b875f39c"
    },
    {
        "name": "耕三寺",
        "lat": 34.303924,
        "lng": 133.090232,
        "genre": "見る/神社仏閣",
        "placeId": "34d40e1d4752b1b06882f5140a715bab01554900"
    },
    {
        "name": "向上寺",
        "lat": 34.306293,
        "lng": 133.086976,
        "genre": "見る/神社仏閣",
        "placeId": "5d680dad5c9ce17379c083690f5fe688eb869d43"
    },
    {
        "name": "天寧寺",
        "lat": 34.40977,
        "lng": 133.200675,
        "genre": "見る/神社仏閣",
        "placeId": "3633fdbd87a0d1884ef3db8187e75b9d92e414fa"
    },
    {
        "name": "浄土寺",
        "lat": 34.411951,
        "lng": 133.210136,
        "genre": "見る/神社仏閣",
        "placeId": "369ed561e8e69d5fcbdbf320d3d027f53bff029f"
    },
    {
        "name": "福善寺",
        "lat": 34.41212,
        "lng": 133.20279,
        "genre": "見る/神社仏閣",
        "placeId": "993665a47f97002e1a7d53a5f6c804c894210d54"
    },
    {
        "name": "西郷寺",
        "lat": 34.414067,
        "lng": 133.208065,
        "genre": "見る/神社仏閣",
        "placeId": "0a973a9dceabdb7ad415e3bf00d5d4f9bd30bd9b"
    },
    {
        "name": "光明寺",
        "lat": 34.408223,
        "lng": 133.1978,
        "genre": "見る/神社仏閣",
        "placeId": "a8ed11ce3ed160eeb48a01194416bd46e7f9ecc9"
    },
    {
        "name": "西國寺",
        "lat": 34.415904,
        "lng": 133.203387,
        "genre": "見る/神社仏閣",
        "placeId": "fff9963db6b2df45aae5299dc2448c8c4a5d5aa0"
    },
    {
        "name": "浄土寺庭園",
        "lat": 34.411951,
        "lng": 133.210136,
        "genre": "見る/公園・庭園",
        "placeId": "6b57a4f1e340c7e8b5843092f72765b1a7d4e67d"
    },
    {
        "name": "尾道",
        "lat": 34.408885,
        "lng": 133.20487,
        "genre": "見る/施設景観",
        "placeId": "47171e0c17d6d38db4c3563a37d8805d41a52c08"
    },
    {
        "name": "向上寺三重塔",
        "lat": 34.306897,
        "lng": 133.086678,
        "genre": "見る/文化施設",
        "placeId": "8513db98531c44502c9f80eedf4096bba2da57c0"
    },
    {
        "name": "浄土寺本堂",
        "lat": 34.411951,
        "lng": 133.210136,
        "genre": "見る/文化施設",
        "placeId": "8fa19d3d8a0f4290425e0991500623b934776e1a"
    },
    {
        "name": "吉原家住宅",
        "lat": 34.387533,
        "lng": 133.206973,
        "genre": "見る/文化施設",
        "placeId": "181eef2c03211a6ac324ef1a591f5c121195b941"
    },
    {
        "name": "光明坊",
        "lat": 34.280043,
        "lng": 133.117833,
        "genre": "見る/文化施設",
        "placeId": "7d6f6cdfbf974d14f5acf9de077653ac1729cf6a"
    },
    {
        "name": "新尾道大橋",
        "lat": 34.409735,
        "lng": 133.216159,
        "genre": "見る/文化施設",
        "placeId": "71b3f2f027e17797ec6c332733058f3a9ae6be29"
    },
    {
        "name": "因島大橋",
        "lat": 34.358707,
        "lng": 133.183737,
        "genre": "見る/文化施設"
    },
    {
        "name": "耕三寺博物館",
        "lat": 34.303763,
        "lng": 133.090249,
        "genre": "見る/文化施設",
        "placeId": "34d40e1d4752b1b06882f5140a715bab01554900"
    },
    {
        "name": "大浜埼灯台記念館（旧大浜埼通航潮流信号所）",
        "lat": 34.357596,
        "lng": 133.173155,
        "genre": "見る/文化施設",
        "placeId": "07d9070062a15dde90fbc1978ab0a63453192646"
    },
    {
        "name": "圓鍔勝三彫刻美術館",
        "lat": 34.513646,
        "lng": 133.137426,
        "genre": "見る/文化施設",
        "placeId": "1861ad3b3dbbbc8998e5192741bb405b61a3a232"
    },
    {
        "name": "因島史料館",
        "lat": 34.327059,
        "lng": 133.166561,
        "genre": "見る/文化施設",
        "placeId": "912eab5f52abac57430623cdc3c6cb5a7e3da8e9"
    },
    {
        "name": "尾道市立美術館",
        "lat": 34.409912,
        "lng": 133.19577,
        "genre": "見る/文化施設",
        "placeId": "8ea5fe51f6cac479c8f7dc73d5c179c89fb48e27"
    },
    {
        "name": "向島洋らんセンター",
        "lat": 34.375793,
        "lng": 133.206331,
        "genre": "見る/文化施設",
        "placeId": "7db7c8591646bf2b0fadd137a058eba9ed7ee56f"
    },
    {
        "name": "尾道市因島フラワーセンター",
        "lat": 34.345396,
        "lng": 133.151793,
        "genre": "見る/文化施設",
        "placeId": "45a7859a5b57f21d58df32cfb3602e287a571e07"
    },
    {
        "name": "白滝山（瀬戸内海国立公園）",
        "lat": 34.345243,
        "lng": 133.15773,
        "genre": "見る/公園・庭園",
        "placeId": "db92286a3439ac60e29268998bf2f553634dab87"
    },
    {
        "name": "因島公園",
        "lat": 34.286284,
        "lng": 133.185401,
        "genre": "見る/公園・庭園",
        "placeId": "8c3fca4885cbe79630a9c22b19cb326089f09d3a"
    },
    {
        "name": "千光寺公園",
        "lat": 34.411207,
        "lng": 133.197341,
        "genre": "見る/公園・庭園",
        "placeId": "272dd98ff26993a5f3c6cf94723ba144ab4573eb"
    },
    {
        "name": "鳴滝山（瀬戸内海国立公園）",
        "lat": 34.410804,
        "lng": 133.147001,
        "genre": "見る/公園・庭園",
        "placeId": "7c98427626c19ac59ffa6a1a8fc86937bcccc63b"
    },
    {
        "name": "高見山（瀬戸内海国立公園）",
        "lat": 34.369936,
        "lng": 133.208306,
        "genre": "見る/公園・庭園",
        "placeId": "086e97254a646b4c718347bcc83f2a5c878327fa"
    },
    {
        "name": "千光寺公園展望台",
        "lat": 34.410678,
        "lng": 133.196933,
        "genre": "見る/施設景観",
        "placeId": "8a4503c79cfb11aa806de04533ccc9cdb66c34f9"
    },
    {
        "name": "高見山展望台",
        "lat": 34.368272,
        "lng": 133.207147,
        "genre": "見る/施設景観",
        "placeId": "d20ca68b0cc8105f3f8361dc351c67a902b29ac1"
    },
    {
        "name": "みつぎ遊々館",
        "lat": 34.515112,
        "lng": 133.135687,
        "genre": "遊ぶ/文化施設",
        "placeId": "800e7a42e8b9a436b833cf19cc7de1847ba4e253"
    },
    {
        "name": "尾道市マリンユースセンター",
        "lat": 34.362533,
        "lng": 133.21237,
        "genre": "遊ぶ/文化施設",
        "placeId": "97a5384bed416a8490c0d1767cf45c14fd360b23"
    },
    {
        "name": "大浜埼キャンプ場",
        "lat": 34.357856,
        "lng": 133.171291,
        "genre": "遊ぶ/スポーツ・レジャー",
        "placeId": "a622998dd365a3ba255ebecd29902f9d0414a7e8"
    },
    {
        "name": "しまなみビーチ",
        "lat": 34.357418,
        "lng": 133.168078,
        "genre": "遊ぶ/スポーツ・レジャー",
        "placeId": "bbe1bb97cfd5eb6a5ecbd4ebdf01beac9268544f"
    },
    {
        "name": "瀬戸田サンセットビーチ（しまなみレモンビーチ）",
        "lat": 34.280173,
        "lng": 133.072295,
        "genre": "遊ぶ/スポーツ・レジャー",
        "placeId": "880122f1e528337c471b2bcc4df74914f16fb49b"
    },
    {
        "name": "養老温泉本館",
        "lat": 34.449207,
        "lng": 133.198643,
        "genre": "遊ぶ/温泉",
        "placeId": "7dd7004a7936c71373376c33514b432c56724e96"
    },
    {
        "name": "観光遊漁船",
        "lat": 34.301533,
        "lng": 133.083317,
        "genre": "遊ぶ/スポーツ・レジャー"
    },
    {
        "name": "桂馬蒲鉾商店",
        "lat": 34.406193,
        "lng": 133.197403,
        "genre": "買う",
        "placeId": "2e18fb720df7c7e3169a8013721d25692bfdb53c"
    },
    {
        "name": "瀬戸のうたみち遊歩道",
        "lat": 34.368449,
        "lng": 133.207254,
        "genre": "遊ぶ/スポーツ・レジャー"
    },
    {
        "name": "文学のこみち",
        "lat": 34.410836,
        "lng": 133.197632,
        "genre": "遊ぶ/スポーツ・レジャー",
        "placeId": "d0c24f494196b9c2ed3ec713075978604f326dec"
    },
    {
        "name": "千光寺山ロープウェイ",
        "lat": 34.410573,
        "lng": 133.19755,
        "genre": "乗り物",
        "placeId": "deb1a0755ab0f5fbeb383e40db7bc57e49d43323"
    },
    {
        "name": "尾道大橋みかん狩り園",
        "lat": 34.405059,
        "lng": 133.211994,
        "genre": "遊ぶ/スポーツ・レジャー",
        "placeId": "2b1b8ec64bb9f703b40be0d867568bc1f89f4c7c"
    },
    {
        "name": "慈観寺のボタン",
        "lat": 34.411247,
        "lng": 133.201128,
        "genre": "見る/動・植物",
        "placeId": "42d1c7e6bbc3afdc45df1fd05fd190be3fdfbdad"
    },
    {
        "name": "生口島",
        "lat": 34.306025,
        "lng": 133.095268,
        "genre": "見る/自然景観"
    },
    {
        "name": "木造仏殿様厨子",
        "lat": 34.387533,
        "lng": 133.206973,
        "genre": "見る/文化史跡"
    },
    {
        "name": "本因坊秀策の碑",
        "lat": 34.328319,
        "lng": 133.183813,
        "genre": "見る/その他",
        "placeId": "ba4ffd25943935f33a6e6efacd3af32e318f1ed6"
    },
    {
        "name": "因島",
        "lat": 34.294591,
        "lng": 133.169191,
        "genre": "見る/自然景観"
    },
    {
        "name": "高見山公園の桜",
        "lat": 34.369936,
        "lng": 133.208284,
        "genre": "見る/動・植物",
        "placeId": "086e97254a646b4c718347bcc83f2a5c878327fa"
    },
    {
        "name": "向島",
        "lat": 34.395702,
        "lng": 133.198548,
        "genre": "見る/自然景観"
    },
    {
        "name": "山波艮神社のウバメガシ",
        "lat": 34.413067,
        "lng": 133.229853,
        "genre": "見る/動・植物",
        "placeId": "8cacd08f3efb2df174a9195f79edcb20ee0eb8be"
    },
    {
        "name": "阿弥陀寺のビャクシン",
        "lat": 34.3809,
        "lng": 133.163603,
        "genre": "見る/動・植物",
        "placeId": "a60e3d2e4827c07c14c41e46a71351a28d70c93d"
    },
    {
        "name": "みつぎグリーンランド",
        "lat": 34.506621,
        "lng": 133.069054,
        "genre": "遊ぶ/スポーツ・レジャー",
        "placeId": "2f9b144401d7abd266d3fe91cd5fd002379bf2a0"
    },
    {
        "name": "千光寺公園の桜",
        "lat": 34.411207,
        "lng": 133.197341,
        "genre": "見る/動・植物",
        "placeId": "272dd98ff26993a5f3c6cf94723ba144ab4573eb"
    },
    {
        "name": "除虫菊",
        "lat": 34.344331,
        "lng": 133.140028,
        "genre": "見る/動・植物",
        "placeId": "7992b11213cdf4d02b8abb2295532c1d9bd0c000"
    },
    {
        "name": "鴻雪爪の碑",
        "lat": 34.320769,
        "lng": 133.168743,
        "genre": "見る/その他"
    },
    {
        "name": "御寺のイブキビャクシン",
        "lat": 34.280043,
        "lng": 133.117833,
        "genre": "見る/動・植物"
    },
    {
        "name": "因島公園の桜",
        "lat": 34.286279,
        "lng": 133.18541,
        "genre": "見る/動・植物",
        "placeId": "8c3fca4885cbe79630a9c22b19cb326089f09d3a"
    },
    {
        "name": "済法寺",
        "lat": 34.409062,
        "lng": 133.191964,
        "genre": "見る/神社仏閣",
        "placeId": "54101e00cf50ba52d2fa697fc07836dfa1c8310b"
    },
    {
        "name": "金剛院",
        "lat": 34.415186,
        "lng": 133.203502,
        "genre": "見る/神社仏閣",
        "placeId": "4e4c3a33df6a91481678061bb1c812bf9b0afeef"
    },
    {
        "name": "おのみち映画資料館",
        "lat": 34.409573,
        "lng": 133.205266,
        "genre": "見る/文化施設",
        "placeId": "5414a6d796a107fcd35f8fa2a6138098cc6e38ba"
    },
    {
        "name": "平山郁夫美術館",
        "lat": 34.305721,
        "lng": 133.090427,
        "genre": "見る/文化施設",
        "placeId": "ce5f24e48ad7f4f39f716e4a971c8ef21832b55f"
    },
    {
        "name": "しまなみ交流館(テアトロシェルネ)",
        "lat": 34.403848,
        "lng": 133.192573,
        "genre": "遊ぶ/文化施設",
        "placeId": "3ce1157342514f9f977aeb4c3806d8c0624ca191"
    },
    {
        "name": "しまなみレンタサイクル協会",
        "lat": 34.403329,
        "lng": 133.192881,
        "genre": "乗り物",
        "placeId": "9ad8a75fd26a464fa41592de89e5a67c922c4fa1"
    },
    {
        "name": "道の駅クロスロードみつぎ",
        "lat": 34.511452,
        "lng": 133.144634,
        "genre": "買う",
        "placeId": "2ab1648d4fa8605d66b22504258b4f1e7a0040ce"
    },
    {
        "name": "爽籟軒庭園",
        "lat": 34.411995,
        "lng": 133.206713,
        "genre": "見る/公園・庭園",
        "placeId": "2d5b56babbccecf32014a4421327fcafa2b615d4"
    },
    {
        "name": "尾道ふれあいの里",
        "lat": 34.513312,
        "lng": 133.129377,
        "genre": "遊ぶ/温泉",
        "placeId": "0289b566e2d7cd79813c18a88dd41a4c86f9aecf"
    },
    {
        "name": "おのみち歴史博物館（旧尾道銀行本店）",
        "lat": 34.409767,
        "lng": 133.204872,
        "genre": "見る/文化施設",
        "placeId": "806440d9a2f69488dd3307f09a325616cd4ca095"
    },
    {
        "name": "おのみち文学の館　中村憲吉旧居",
        "lat": 34.410304,
        "lng": 133.199183,
        "genre": "見る/文化施設",
        "placeId": "4c446904aae4afcaf08f902810d8d1973b12ff33"
    },
    {
        "name": "なかた美術館",
        "lat": 34.409137,
        "lng": 133.186956,
        "genre": "見る/文化施設",
        "placeId": "01cbe982412489c24b2e386775465a9a7216d65e"
    },
    {
        "name": "岩屋山",
        "lat": 34.403236,
        "lng": 133.210232,
        "genre": "見る/自然景観",
        "placeId": "b9d015dc2382808961b11d1947e0ded8b8431a3e"
    },
    {
        "name": "海福寺",
        "lat": 34.407261,
        "lng": 133.197742,
        "genre": "見る/神社仏閣",
        "placeId": "0f1986914ee834d39734fa9962261304ec193b27"
    },
    {
        "name": "宝土寺",
        "lat": 34.408231,
        "lng": 133.199317,
        "genre": "見る/神社仏閣",
        "placeId": "9fcb54709fd482eb110976d55bb77cea9a8f0341"
    },
    {
        "name": "信行寺",
        "lat": 34.408698,
        "lng": 133.200042,
        "genre": "見る/神社仏閣",
        "placeId": "f9c7a2e9514cf38408465c30da96159915092534"
    },
    {
        "name": "海雲塔（三重塔）",
        "lat": 34.410044,
        "lng": 133.199852,
        "genre": "見る/神社仏閣",
        "placeId": "8366007cd44aafe3b44a62421eaebb27e4c1dd74"
    },
    {
        "name": "天寧寺の五百羅漢",
        "lat": 34.409488,
        "lng": 133.200767,
        "genre": "見る/神社仏閣",
        "placeId": "1098b9f0111f9eb313ad7742ad71da3681632e99"
    },
    {
        "name": "正授院",
        "lat": 34.411028,
        "lng": 133.201683,
        "genre": "見る/神社仏閣",
        "placeId": "098eef0eeddb20fc429d87975dfd2b2a917a7a32"
    },
    {
        "name": "艮神社",
        "lat": 34.410717,
        "lng": 133.200655,
        "genre": "見る/神社仏閣",
        "placeId": "dac83797df3c0cf74ec1ff51c6c7995f07a32c33"
    },
    {
        "name": "妙宣寺",
        "lat": 34.411123,
        "lng": 133.200705,
        "genre": "見る/神社仏閣",
        "placeId": "5ab2697c206ea78610df572f5c3960f09e0032f8"
    },
    {
        "name": "慈観寺",
        "lat": 34.411253,
        "lng": 133.201082,
        "genre": "見る/神社仏閣",
        "placeId": "42d1c7e6bbc3afdc45df1fd05fd190be3fdfbdad"
    },
    {
        "name": "善勝寺",
        "lat": 34.411756,
        "lng": 133.200367,
        "genre": "見る/神社仏閣",
        "placeId": "ed9208a3af1ee89456d330e19f21a9aeae4a1f7e"
    },
    {
        "name": "御袖天満宮",
        "lat": 34.413393,
        "lng": 133.202151,
        "genre": "見る/神社仏閣",
        "placeId": "9cb93e8b823eec88f36c2818d3eed3c924cf497a"
    },
    {
        "name": "大山寺",
        "lat": 34.4133,
        "lng": 133.20247,
        "genre": "見る/神社仏閣",
        "placeId": "07a2f04b3f60e4ecfd36fc206b577ed9a624146e"
    },
    {
        "name": "常称寺",
        "lat": 34.412464,
        "lng": 133.203894,
        "genre": "見る/神社仏閣",
        "placeId": "91e0fc128b8225c367ada8cac6ef313b05ca78e9"
    },
    {
        "name": "持善院",
        "lat": 34.414669,
        "lng": 133.203225,
        "genre": "見る/神社仏閣",
        "placeId": "fb42a5f0d674a41168097a06e5f6544dd6c360cc"
    },
    {
        "name": "浄泉寺",
        "lat": 34.413008,
        "lng": 133.205258,
        "genre": "見る/神社仏閣",
        "placeId": "da9eebf08db0bb3a9046e7cfb0f0712b548928c5"
    },
    {
        "name": "尊光寺",
        "lat": 34.41236,
        "lng": 133.205822,
        "genre": "見る/神社仏閣",
        "placeId": "3894d0fe0491b5e177a3fdae8bd4bbd452052ee5"
    },
    {
        "name": "正念寺",
        "lat": 34.413215,
        "lng": 133.205863,
        "genre": "見る/神社仏閣",
        "placeId": "57248fde2d2205454ef964e4eb08c84df830263f"
    },
    {
        "name": "海徳寺",
        "lat": 34.413421,
        "lng": 133.209592,
        "genre": "見る/神社仏閣",
        "placeId": "f17627e55bad19f35146f58bdebd34087aa24d44"
    },
    {
        "name": "吉備津彦（一宮）神社",
        "lat": 34.40772,
        "lng": 133.198756,
        "genre": "見る/神社仏閣",
        "placeId": "451bd07749b81d6e119aa084e5ecffc1bcb552f2"
    },
    {
        "name": "烏須井八幡（栗原八幡）神社",
        "lat": 34.421807,
        "lng": 133.187578,
        "genre": "見る/神社仏閣",
        "placeId": "c4094ee494130d342db65b8c39b98e483dc390fa"
    },
    {
        "name": "興福寺",
        "lat": 34.301463,
        "lng": 133.086969,
        "genre": "見る/神社仏閣",
        "placeId": "c04047e2a20f73c4224bb44f8c920b98b0aea685"
    },
    {
        "name": "岩子島　厳島神社",
        "lat": 34.377258,
        "lng": 133.156911,
        "genre": "見る/神社仏閣",
        "placeId": "7dfe15e0ea153f73388da46144de2b2d1831b650"
    },
    {
        "name": "艮神社（因島椋浦町）",
        "lat": 34.317465,
        "lng": 133.202298,
        "genre": "見る/神社仏閣",
        "placeId": "ad7057fd5b252620b9bbfa22bc0722adeaf2e87d"
    },
    {
        "name": "艮神社（御調町大蔵）",
        "lat": 34.530913,
        "lng": 133.178639,
        "genre": "見る/神社仏閣",
        "placeId": "513cd22a165e79215ff007979a59a24fae97f512"
    },
    {
        "name": "大元神社",
        "lat": 34.404632,
        "lng": 133.210297,
        "genre": "見る/神社仏閣",
        "placeId": "92397863b5f34de0305529272dfdf7e0b3ae54ab"
    },
    {
        "name": "沖の観音",
        "lat": 34.393726,
        "lng": 133.276767,
        "genre": "見る/神社仏閣",
        "placeId": "abad01f41cbc485f911e8da548e965e2672c9255"
    },
    {
        "name": "覚明神社",
        "lat": 34.390749,
        "lng": 133.196954,
        "genre": "見る/神社仏閣",
        "placeId": "ee2424f9607f9122278b7a62cc1c86746ad9d91f"
    },
    {
        "name": "亀森八幡神社",
        "lat": 34.398324,
        "lng": 133.202482,
        "genre": "見る/神社仏閣",
        "placeId": "7384c0728b129748b6f2395924332dc371d1641a"
    },
    {
        "name": "冠天神",
        "lat": 34.395908,
        "lng": 133.230476,
        "genre": "見る/神社仏閣",
        "placeId": "96cd11ed8f56f951e2771b4a0cbbeb2e78986ca2"
    },
    {
        "name": "久保亀山八幡神社",
        "lat": 34.41347,
        "lng": 133.205449,
        "genre": "見る/神社仏閣",
        "placeId": "d57997b24f11719217c7faa72975ee94d2c93e9e"
    },
    {
        "name": "熊箇原八幡神社",
        "lat": 34.322886,
        "lng": 133.172811,
        "genre": "見る/神社仏閣",
        "placeId": "9730593a2b4fc9c6bd30c233b9933cbc40a83dc7"
    },
    {
        "name": "西提寺",
        "lat": 34.400918,
        "lng": 133.211114,
        "genre": "見る/神社仏閣",
        "placeId": "3c66160b8af33790ced8e432970ad063b1168f63"
    },
    {
        "name": "照源寺",
        "lat": 34.515232,
        "lng": 133.143593,
        "genre": "見る/神社仏閣",
        "placeId": "3c1769ce4a5378336e39c6c01c82418d287f705b"
    },
    {
        "name": "地蔵院",
        "lat": 34.328443,
        "lng": 133.185959,
        "genre": "見る/神社仏閣",
        "placeId": "651b8086a1ce4a566330984b4b2ab471ad8ab510"
    },
    {
        "name": "成願寺",
        "lat": 34.325571,
        "lng": 133.168444,
        "genre": "見る/神社仏閣",
        "placeId": "acce610956680c20023203d849703eba876cbf43"
    },
    {
        "name": "住吉神社",
        "lat": 34.408175,
        "lng": 133.20285,
        "genre": "見る/神社仏閣",
        "placeId": "1b80ce5479d592ca445e6cf91a1f40d09baa0990"
    },
    {
        "name": "善徳寺",
        "lat": 34.301931,
        "lng": 133.184467,
        "genre": "見る/神社仏閣",
        "placeId": "d2900721bfa41aa16015335a0b90eb848da85578"
    },
    {
        "name": "善立寺",
        "lat": 34.278596,
        "lng": 133.116649,
        "genre": "見る/神社仏閣",
        "placeId": "6bdf681d85fb5a29a935d36c0534cd5af4b63627"
    },
    {
        "name": "対潮院",
        "lat": 34.298128,
        "lng": 133.178339,
        "genre": "見る/神社仏閣",
        "placeId": "d38422ec6d8ab7b91531c51de640382087fbf7fd"
    },
    {
        "name": "垂水天満宮",
        "lat": 34.283449,
        "lng": 133.075065,
        "genre": "見る/神社仏閣",
        "placeId": "0616f7187d063c542c667aa6e3324bbce038dc2e"
    },
    {
        "name": "長福寺",
        "lat": 34.327285,
        "lng": 133.169622,
        "genre": "見る/神社仏閣",
        "placeId": "0f0ec25aa649a41d914cdb914c1a138ef1123eb8"
    },
    {
        "name": "萩八幡神社",
        "lat": 34.500797,
        "lng": 133.115058,
        "genre": "見る/神社仏閣",
        "placeId": "f1ef55d7b0a27b617b5d3822d63816d48d4fcf05"
    },
    {
        "name": "法然寺",
        "lat": 34.305488,
        "lng": 133.086569,
        "genre": "見る/神社仏閣"
    },
    {
        "name": "摩訶衍寺",
        "lat": 34.491235,
        "lng": 133.197565,
        "genre": "見る/神社仏閣",
        "placeId": "c1e458a11e55c0299b7c30e89dd432e73284e9a6"
    },
    {
        "name": "見性寺",
        "lat": 34.342061,
        "lng": 133.176094,
        "genre": "見る/神社仏閣",
        "placeId": "24e2c9146c165fd934042f78bc4280f858add9f4"
    },
    {
        "name": "密厳浄土寺",
        "lat": 34.303864,
        "lng": 133.171606,
        "genre": "見る/神社仏閣",
        "placeId": "bf419fba534fb9089299df8a7a3e9aac7b89c0d1"
    },
    {
        "name": "はっさく発祥の地記念碑",
        "lat": 34.303864,
        "lng": 133.171606,
        "genre": "見る/文化史跡"
    },
    {
        "name": "無量寺",
        "lat": 34.289343,
        "lng": 133.196771,
        "genre": "見る/神社仏閣",
        "placeId": "150bc9256aa71d54308ad6dbc547c711facccc28"
    },
    {
        "name": "百島八幡神社",
        "lat": 34.376796,
        "lng": 133.272009,
        "genre": "見る/神社仏閣",
        "placeId": "64e444d23397cf5cfaf2c929dd408ee5a5182495"
    },
    {
        "name": "薬師寺",
        "lat": 34.284734,
        "lng": 133.130569,
        "genre": "見る/神社仏閣",
        "placeId": "ab20a370cdbaa82f96385a460b885520367a7f34"
    },
    {
        "name": "八坂神社",
        "lat": 34.413468,
        "lng": 133.205446,
        "genre": "見る/神社仏閣",
        "placeId": "d00061d982bfd82f6653134888d703e8cf90ee08"
    },
    {
        "name": "山脇神社",
        "lat": 34.414771,
        "lng": 133.208351,
        "genre": "見る/神社仏閣",
        "placeId": "a19f108eb619ea8fd42e54f26ad1cd29e643800b"
    },
    {
        "name": "尾道駅観光案内所",
        "lat": 34.404826,
        "lng": 133.193826,
        "genre": "見る/文化施設",
        "placeId": "cea35650451ec4097c08ef584cb96c589829c188"
    },
    {
        "name": "因島アメニティ公園",
        "lat": 34.357045,
        "lng": 133.168175,
        "genre": "見る/公園・庭園",
        "placeId": "34a8f2c3c8308047e66be989c25a88f766537340"
    },
    {
        "name": "新尾道駅観光案内所",
        "lat": 34.429984,
        "lng": 133.190275,
        "genre": "見る/文化施設",
        "placeId": "0e5452d6be62aa9093d6fbfc8dfb7594f2a60417"
    },
    {
        "name": "瀬戸田町観光案内所",
        "lat": 34.306071,
        "lng": 133.089886,
        "genre": "見る/文化施設",
        "placeId": "19493645dba94bfc26740770a0ff8864bd521bcc"
    },
    {
        "name": "ロープウェイ山麓駅観光案内所",
        "lat": 34.410667,
        "lng": 133.201494,
        "genre": "見る/文化施設",
        "placeId": "3b2d65ee84c8ede4e3c9dd4e116f99dd40d9588a"
    },
    {
        "name": "尾道ええもんや（尾道観光土産品協同組合）",
        "lat": 34.409614,
        "lng": 133.202397,
        "genre": "買う",
        "placeId": "f12339c46e0c20da5feb332a2e246b3be507d4eb"
    },
    {
        "name": "尾道商業会議所記念館",
        "lat": 34.406559,
        "lng": 133.198184,
        "genre": "見る/文化施設",
        "placeId": "1fb0d41336531dd8c3afd9a6fcc2f4fc201167ac"
    },
    {
        "name": "岩倉の水",
        "lat": 34.513591,
        "lng": 133.115448,
        "genre": "見る/その他",
        "placeId": "7177cd0e36e0fe911942399d9ac3f681ec40ae84"
    },
    {
        "name": "大田貝塚",
        "lat": 34.427838,
        "lng": 133.22562,
        "genre": "見る/文化史跡",
        "placeId": "9d81b78f6b08f984b745c5753d0a9423bd7aef5c"
    },
    {
        "name": "海物園跡",
        "lat": 34.395497,
        "lng": 133.187271,
        "genre": "見る/文化史跡",
        "placeId": "9cddfd95a245dd0b741f9735c4c4e63ccfaa6eec"
    },
    {
        "name": "蒲刈小早川氏五輪塔",
        "lat": 34.315746,
        "lng": 133.200839,
        "genre": "見る/文化史跡"
    },
    {
        "name": "因島アメニティプール",
        "lat": 34.356997,
        "lng": 133.16792,
        "genre": "遊ぶ/スポーツ・レジャー",
        "placeId": "c7b55476595f310f773bae9f0d25c6c75feaf66d"
    },
    {
        "name": "菅公の腰掛け岩",
        "lat": 34.412173,
        "lng": 133.202234,
        "genre": "見る/文化史跡"
    },
    {
        "name": "高根島灯台",
        "lat": 34.333793,
        "lng": 133.076663,
        "genre": "見る/文化史跡",
        "placeId": "06113a0b86f60c07847e608cd43aee2a0d7fd330"
    },
    {
        "name": "古浜児童公園",
        "lat": 34.397938,
        "lng": 133.174263,
        "genre": "見る/公園・庭園",
        "placeId": "0f9c8372603c4d678b6f4aebdb861fe1a1066c1a"
    },
    {
        "name": "小林和作旧居",
        "lat": 34.416914,
        "lng": 133.198753,
        "genre": "見る/文化史跡",
        "placeId": "f52d13b229372d658529e16e3b5ec5bdc8afde7d"
    },
    {
        "name": "汐待亭",
        "lat": 34.30441,
        "lng": 133.086242,
        "genre": "見る/文化施設",
        "placeId": "86118e94e9350d5f0e0918ae6591fbfde5a6abba"
    },
    {
        "name": "浄土寺山展望台",
        "lat": 34.414864,
        "lng": 133.213183,
        "genre": "見る/施設景観",
        "placeId": "1bffdd867ed9c77e1ba1de5ed35e1e1f8922a109"
    },
    {
        "name": "瀬戸田町歴史民俗資料館",
        "lat": 34.304438,
        "lng": 133.084295,
        "genre": "見る/文化施設",
        "placeId": "912aeefa097542383bbb5f7674730a0cd599f83d"
    },
    {
        "name": "尾道市営プール",
        "lat": 34.409326,
        "lng": 133.194184,
        "genre": "遊ぶ/スポーツ・レジャー",
        "placeId": "5a138891f9ebcf99407a5f965e44cc8096ef6bab"
    },
    {
        "name": "猫の細道",
        "lat": 34.410576,
        "lng": 133.200222,
        "genre": "遊ぶ/スポーツ・レジャー",
        "placeId": "26f34fe33442f3dd169b081f75d6174c77adc427"
    },
    {
        "name": "久山田水源地",
        "lat": 34.426239,
        "lng": 133.164872,
        "genre": "見る/文化施設",
        "placeId": "c976148173821c7488a09f86d3583c4cba9d734b"
    },
    {
        "name": "本因坊秀策の墓",
        "lat": 34.328443,
        "lng": 133.185959,
        "genre": "見る/文化史跡",
        "placeId": "ba4ffd25943935f33a6e6efacd3af32e318f1ed6"
    },
    {
        "name": "向島捕虜収容所跡",
        "lat": 34.400762,
        "lng": 133.204991,
        "genre": "見る/文化史跡"
    },
    {
        "name": "竜王山の石仏群",
        "lat": 34.409821,
        "lng": 133.183764,
        "genre": "見る/文化史跡",
        "placeId": "89e389825743b218e99fa35e106c7a80e3a5310a"
    },
    {
        "name": "アートベース百島",
        "lat": 34.37688,
        "lng": 133.27245,
        "genre": "その他",
        "placeId": "3f834c4fd79901bf174c5d57fbf471b0e1c55753"
    },
    {
        "name": "尾道イーハトーヴ・尾道アート館",
        "lat": 34.410253,
        "lng": 133.199892,
        "genre": "その他",
        "placeId": "dbb029bb972e33a01a5c1b163b090bdaeb3364a6"
    },
    {
        "name": "尾道イーハトーヴ・招き猫美術館in尾道",
        "lat": 34.410387,
        "lng": 133.199873,
        "genre": "見る/文化施設",
        "placeId": "72a8faeb99c21594a603f5ecdc928e3439a9e70b"
    },
    {
        "name": "MOU尾道市立大学美術館",
        "lat": 34.411535,
        "lng": 133.209072,
        "genre": "見る/文化施設",
        "placeId": "1410f8e56553f24c3d335084f8ab2ef36f7455c8"
    },
    {
        "name": "おのみち海辺の美術館",
        "lat": 34.406338,
        "lng": 133.199134,
        "genre": "見る/文化施設",
        "placeId": "9d6cedf184319a2ff79d519937ea107305480a54"
    },
    {
        "name": "福山大学マリンバイオセンター水族館",
        "lat": 34.34911,
        "lng": 133.17503,
        "genre": "見る/文化施設",
        "placeId": "2d5249be243f4218396cd16c71da2eaa5ee64388"
    },
    {
        "name": "林芙美子像",
        "lat": 34.405779,
        "lng": 133.195537,
        "genre": "見る/文化史跡",
        "placeId": "9f7db9c7faf8b50e07fab8ff5b9ff23da55fa3f6"
    },
    {
        "name": "尾道市シルバー人材センター観光ガイド",
        "lat": 34.42288,
        "lng": 133.21021,
        "genre": "その他",
        "placeId": "fa47ca32bd2bd0532c1b1a2a9157aa0cda4943dd"
    },
    {
        "name": "観光パートナー尾道の会",
        "lat": 34.410667,
        "lng": 133.201494,
        "genre": "その他"
    },
    {
        "name": "因島観光ガイドつれしお会",
        "lat": 34.283583,
        "lng": 133.178535,
        "genre": "その他",
        "placeId": "1d25d5da1c5f2a52a681e01ebbffc36698d9590b"
    },
    {
        "name": "しまなみガイド瀬戸田会",
        "lat": 34.306071,
        "lng": 133.089886,
        "genre": "その他"
    },
    {
        "name": "因島観光協会",
        "lat": 34.283583,
        "lng": 133.178535,
        "genre": "見る/文化施設",
        "placeId": "1d25d5da1c5f2a52a681e01ebbffc36698d9590b"
    },
    {
        "name": "ONOMICHI U2",
        "lat": 34.401957,
        "lng": 133.189814,
        "genre": "見る/文化施設",
        "placeId": "98d41bd3dbec67337ae924493e6946b70cd12cbf"
    },
    {
        "name": "尾道平原温泉　ぽっぽの湯",
        "lat": 34.410056,
        "lng": 133.179032,
        "genre": "遊ぶ/温泉",
        "placeId": "6948ee3dfe74e3eaa98bcc2c902dd3781122ec19"
    },
    {
        "name": "ゆうじん温泉",
        "lat": 34.495298,
        "lng": 133.207681,
        "genre": "遊ぶ/温泉",
        "placeId": "8fbd8183283e937044ab1552b5ae42003414b44c"
    },
    {
        "name": "尾道駅前渡船",
        "lat": 34.403449,
        "lng": 133.193666,
        "genre": "乗り物",
        "placeId": "28f783622bc5fa67334c9d9b6dbd3bd8effbc258"
    },
    {
        "name": "福本渡船",
        "lat": 34.405093,
        "lng": 133.196601,
        "genre": "乗り物",
        "placeId": "1dba1005fab802b75674db05321bf94c8f603dae"
    },
    {
        "name": "尾道渡船",
        "lat": 34.40661,
        "lng": 133.200665,
        "genre": "乗り物",
        "placeId": "7862d3528efe8563fa590c53ea22a31fe59d34d1"
    },
    {
        "name": "広島県立　びんご運動公園",
        "lat": 34.433503,
        "lng": 133.177551,
        "genre": "遊ぶ/文化施設",
        "placeId": "a8de7585c7b387e86d085cb455dbdc5a299762ff"
    },
    {
        "name": "工房　尾道帆布",
        "lat": 34.408052,
        "lng": 133.200675,
        "genre": "買う",
        "placeId": "4759fbe5168d8c1b5d731217465062e18bc86dde"
    },
    {
        "name": "にぎり仏作り",
        "lat": 34.407227,
        "lng": 133.19594,
        "genre": "遊ぶ/その他",
        "placeId": "4d0d225b622d44712390b9db7f8ef271b875f39c"
    },
    {
        "name": "浪分観音（木造千手観音立像）",
        "lat": 34.408223,
        "lng": 133.1978,
        "genre": "見る/文化施設",
        "placeId": "a8ed11ce3ed160eeb48a01194416bd46e7f9ecc9"
    },
    {
        "name": "紙本著色村上新蔵人吉充像",
        "lat": 34.328013,
        "lng": 133.166406,
        "genre": "見る/文化施設",
        "placeId": "044bb85e6ff6fbe732ea57172ea4ea67f4a41517"
    },
    {
        "name": "因島村上氏一族の墓地",
        "lat": 34.326966,
        "lng": 133.166063,
        "genre": "見る/文化史跡",
        "placeId": "77f49e42e51928c5747cd4497564f668fef08607"
    },
    {
        "name": "「転校生」待ち合わせ（尾道駅）",
        "lat": 34.40484,
        "lng": 133.193651,
        "genre": "見る/その他"
    },
    {
        "name": "「転校生」一美の家に行く陸橋（光明寺下陸橋）",
        "lat": 34.406979,
        "lng": 133.198256,
        "genre": "見る/その他"
    },
    {
        "name": "「転校生」チンピラとの乱闘（文学のこみち）",
        "lat": 34.410836,
        "lng": 133.197633,
        "genre": "見る/その他"
    },
    {
        "name": "「転校生」登校途中の道（志賀直哉旧居坂道）",
        "lat": 34.408721,
        "lng": 133.198889,
        "genre": "見る/その他",
        "placeId": "3fe2756c7083bb6d50dc1c5dfdd783d3fd5174bd"
    },
    {
        "name": "「転校生」「ふたり」喫茶店（こもん）",
        "lat": 34.410711,
        "lng": 133.20185,
        "genre": "見る/その他"
    },
    {
        "name": "「転校生」学校近くの道（長江小学校 横）",
        "lat": 34.414657,
        "lng": 133.20061,
        "genre": "見る/その他",
        "placeId": "d22c4578dbfed62e743af0bb36e3106728be1013"
    },
    {
        "name": "「転校生」法事（福善寺）",
        "lat": 34.412011,
        "lng": 133.202947,
        "genre": "見る/その他"
    },
    {
        "name": "「転校生」ラストシーン（市役所前道路）",
        "lat": 34.409126,
        "lng": 133.204819,
        "genre": "見る/その他"
    },
    {
        "name": "「転校生」転がり落ちる石段（御袖天満宮）",
        "lat": 34.413189,
        "lng": 133.202138,
        "genre": "見る/その他",
        "placeId": "9cb93e8b823eec88f36c2818d3eed3c924cf497a"
    },
    {
        "name": "「転校生」水泳に行く道（尾道大橋）",
        "lat": 34.409418,
        "lng": 133.216667,
        "genre": "見る/その他"
    },
    {
        "name": "「時をかける少女」「ふたり」ある神社（艮神社）",
        "lat": 34.410721,
        "lng": 133.20065,
        "genre": "見る/その他",
        "placeId": "dac83797df3c0cf74ec1ff51c6c7995f07a32c33"
    },
    {
        "name": "「時をかける少女」学校（長江小学校）",
        "lat": 34.414657,
        "lng": 133.20061,
        "genre": "見る/その他"
    },
    {
        "name": "「さびしんぼう」竜王山（日比崎中学校上）",
        "lat": 34.407731,
        "lng": 133.182867,
        "genre": "見る/その他"
    },
    {
        "name": "「さびしんぼう」竜王山下の門（日比崎中学校上）",
        "lat": 34.407731,
        "lng": 133.182867,
        "genre": "見る/その他"
    },
    {
        "name": "「さびしんぼう」ヒロキの家（西願寺）",
        "lat": 34.405609,
        "lng": 133.180918,
        "genre": "見る/その他",
        "placeId": "7db44e8bb4ff9635b28656806f38cd72c80a934d"
    },
    {
        "name": "「さびしんぼう」ヒロキの家近くの道（西願寺下の四つ角）",
        "lat": 34.405609,
        "lng": 133.180918,
        "genre": "見る/その他",
        "placeId": "7db44e8bb4ff9635b28656806f38cd72c80a934d"
    },
    {
        "name": "「さびしんぼう」学校（尾道北高校）",
        "lat": 34.419144,
        "lng": 133.194172,
        "genre": "見る/その他",
        "placeId": "1a9a6aa40f851aa7557ed3f60c3d533450aac3db"
    },
    {
        "name": "「ふたり」土堂小学校",
        "lat": 34.406912,
        "lng": 133.195495,
        "genre": "見る/その他",
        "placeId": "d24fde77632f72326246b26d9bba74c6621c276d"
    },
    {
        "name": "「ふたり」向島大橋",
        "lat": 34.376208,
        "lng": 133.173619,
        "genre": "見る/その他"
    },
    {
        "name": "「ふたり」立花活用村",
        "lat": 34.365313,
        "lng": 133.20272,
        "genre": "見る/その他"
    },
    {
        "name": "「あした」兼吉バス待合所（ロケセット）",
        "lat": 34.404533,
        "lng": 133.203218,
        "genre": "見る/その他",
        "placeId": "92878142600ec0c365685baa321a8c96767497d9"
    },
    {
        "name": "「あの、夏の日-とんでろ、じいちゃん」土堂突堤",
        "lat": 34.406255,
        "lng": 133.199317,
        "genre": "見る/その他"
    },
    {
        "name": "「あの、夏の日-とんでろ、じいちゃん」ぽんぽん岩（鼓岩）",
        "lat": 34.409725,
        "lng": 133.197708,
        "genre": "見る/その他"
    },
    {
        "name": "「男たちの大和／YAMATO」岩子島 厳島神社",
        "lat": 34.377258,
        "lng": 133.15691,
        "genre": "見る/その他",
        "placeId": "7dfe15e0ea153f73388da46144de2b2d1831b650"
    },
    {
        "name": "河野観光農園",
        "lat": 34.305002,
        "lng": 133.091377,
        "genre": "遊ぶ/スポーツ・レジャー",
        "placeId": "567282540f56bd95f9c1ae801366371fd7694d60"
    },
    {
        "name": "高橋みかん狩りセンター",
        "lat": 34.386211,
        "lng": 133.174716,
        "genre": "遊ぶ/スポーツ・レジャー",
        "placeId": "7e7306a9783d90295f631bb2ea9f922ba0d189ac"
    },
    {
        "name": "平山農園",
        "lat": 34.370263,
        "lng": 133.217233,
        "genre": "遊ぶ/スポーツ・レジャー"
    },
    {
        "name": "万汐農園",
        "lat": 34.370266,
        "lng": 133.217638,
        "genre": "遊ぶ/スポーツ・レジャー",
        "placeId": "470c6602c75252c79de4206275e66eb6e7455b93"
    },
    {
        "name": "みくに農園",
        "lat": 34.306009,
        "lng": 133.105927,
        "genre": "遊ぶ/スポーツ・レジャー",
        "placeId": "49c4455ef9e49db8b4e14642bd6131b8fe1669a1"
    },
    {
        "name": "住田農園",
        "lat": 34.377488,
        "lng": 133.196272,
        "genre": "遊ぶ/スポーツ・レジャー",
        "placeId": "6417f9170f2a2dbd7d18bc00cee5f2764ea58e9a"
    },
    {
        "name": "和光観光オレンジ園",
        "lat": 34.347516,
        "lng": 133.170087,
        "genre": "遊ぶ/スポーツ・レジャー",
        "placeId": "dc8a5101c8d01d5fcbb19a5cd09d306968fbc3f1"
    },
    {
        "name": "広島県立びんご運動公園オートキャンプ場",
        "lat": 34.428112,
        "lng": 133.175405,
        "genre": "遊ぶ/スポーツ・レジャー",
        "placeId": "4c54650373bf7641eb76dabb33baecba3d44ed85"
    },
    {
        "name": "長者原スポーツセンター",
        "lat": 34.43719,
        "lng": 133.211201,
        "genre": "遊ぶ/スポーツ・レジャー",
        "placeId": "9dc303655fba77c95c03fe529dbaf0c797718f58"
    },
    {
        "name": "向島運動公園プール",
        "lat": 34.381439,
        "lng": 133.185282,
        "genre": "遊ぶ/スポーツ・レジャー",
        "placeId": "54e3ec73876150bcca3004586f70d997ffbc7f16"
    },
    {
        "name": "しまなみ海道つり堀公園",
        "lat": 34.275781,
        "lng": 133.117035,
        "genre": "遊ぶ/スポーツ・レジャー",
        "placeId": "2225d84505c9874505c0f948dab365d2f804586f"
    },
    {
        "name": "遊漁船 海正丸",
        "lat": 34.386962,
        "lng": 133.176714,
        "genre": "遊ぶ/スポーツ・レジャー"
    },
    {
        "name": "因島マリーナ",
        "lat": 34.347615,
        "lng": 133.147876,
        "genre": "遊ぶ/スポーツ・レジャー",
        "placeId": "fd54649e8edd1043fd876f4af06b075d4044ce75"
    },
    {
        "name": "瀬戸内クルージング",
        "lat": 34.403329,
        "lng": 133.192881,
        "genre": "乗り物",
        "placeId": "eca4ec7e6d1642963cc54fab1508f7d249255c73"
    },
    {
        "name": "つるみ",
        "lat": 34.411336,
        "lng": 133.195078,
        "genre": "買う"
    },
    {
        "name": "千光寺公園頂上売店",
        "lat": 34.410842,
        "lng": 133.196818,
        "genre": "買う",
        "placeId": "5450772461acd42860c97de90f27cac63162c503"
    },
    {
        "name": "井上製麺所",
        "lat": 34.411331,
        "lng": 133.208727,
        "genre": "買う",
        "placeId": "353a44ff8bef53a7649f460a68f214348adb66d3"
    },
    {
        "name": "亀井堂",
        "lat": 34.304402,
        "lng": 133.086528,
        "genre": "買う",
        "placeId": "6fa63593e7753f43453b1965335e1e203c3290f9"
    },
    {
        "name": "富士本舗",
        "lat": 34.304568,
        "lng": 133.087989,
        "genre": "買う",
        "placeId": "717547dfd09778a7fa36b02bfe05cba288e36ca8"
    },
    {
        "name": "橘屋",
        "lat": 34.305346,
        "lng": 133.09173,
        "genre": "買う",
        "placeId": "f7934564a489e68be4e78e6bb56ff507ea1adcc7"
    },
    {
        "name": "久松商店",
        "lat": 34.305161,
        "lng": 133.090217,
        "genre": "買う",
        "placeId": "138bb90443a6567d473e6880b19edce8a21109e5"
    },
    {
        "name": "浜岡商店　Ｔhe尾道",
        "lat": 34.428824,
        "lng": 133.237096,
        "genre": "買う",
        "placeId": "02ec0e450e9965928853c5e4080035bc9f905ce9"
    },
    {
        "name": "Giftあいらんど　かわ邉",
        "lat": 34.397827,
        "lng": 133.215663,
        "genre": "買う",
        "placeId": "f0cda1aefb77b42d34dc2f034fc8c85f33805241"
    },
    {
        "name": "イトク食品",
        "lat": 34.457536,
        "lng": 133.171817,
        "genre": "買う",
        "placeId": "87c0daf49586087d440d6ad29b7e0980f8773ad6"
    },
    {
        "name": "光明寺（因島）",
        "lat": 34.320683,
        "lng": 133.167459,
        "genre": "見る/神社仏閣",
        "placeId": "b69cb94906972457928a06101da4a0833d5d34d2"
    },
    {
        "name": "尾道ガウディハウス（旧和泉家別邸）",
        "lat": 34.406055,
        "lng": 133.191957,
        "genre": "見る/その他",
        "placeId": "92221de8845897914b8c6a43f2c7e03c3afe50a5"
    },
    {
        "name": "クレーンライトアップ",
        "lat": 34.401057,
        "lng": 133.196638,
        "genre": "見る/自然景観"
    },
    {
        "name": "未来心の丘",
        "lat": 34.303295,
        "lng": 133.088802,
        "genre": "見る/文化施設",
        "placeId": "26f8b05582a691fb5e28a625ecf1fdaa6f930138"
    },
    {
        "name": "ベル・カントホール",
        "lat": 34.306253,
        "lng": 133.089698,
        "genre": "遊ぶ/文化施設",
        "placeId": "563276f05298c04a4df9350b24360e50ea46453b"
    },
    {
        "name": "多々羅大橋",
        "lat": 34.259921,
        "lng": 133.064169,
        "genre": "見る/文化施設",
        "placeId": "d98c0fc765c5d896103fdbfed677d74e8ba87454"
    },
    {
        "name": "生口橋",
        "lat": 34.303861,
        "lng": 133.149991,
        "genre": "見る/文化施設",
        "placeId": "3f4242e685b7d725602ebd2f094272c9efb48378"
    },
    {
        "name": "尾道大橋",
        "lat": 34.409418,
        "lng": 133.216667,
        "genre": "見る/文化施設",
        "placeId": "a46d4df1b2d7fb8bc06dfb12734dd7f49a2e3776"
    },
    {
        "name": "亀の首地蔵",
        "lat": 34.309191,
        "lng": 133.085446,
        "genre": "見る/文化史跡",
        "placeId": "11064b468c0a4c15732388494935ef4628b9d797"
    },
    {
        "name": "潮音山公園",
        "lat": 34.30722,
        "lng": 133.086076,
        "genre": "見る/公園・庭園",
        "placeId": "7acd1da0303b03ab44647201eb962cbc6bfc3ffc"
    },
    {
        "name": "レモン谷",
        "lat": 34.264043,
        "lng": 133.071108,
        "genre": "見る/自然景観",
        "placeId": "b48d01305bbed9edb730328243ce1483fdfa8059"
    },
    {
        "name": "光明坊十三重塔",
        "lat": 34.280113,
        "lng": 133.117518,
        "genre": "見る/文化施設",
        "placeId": "7d6f6cdfbf974d14f5acf9de077653ac1729cf6a"
    },
    {
        "name": "白滝山の五百羅漢",
        "lat": 34.345211,
        "lng": 133.157733,
        "genre": "見る/文化史跡",
        "placeId": "b602d7a6dc3ad09353d46d06423ef39728d4222a"
    },
    {
        "name": "金蓮寺",
        "lat": 34.326966,
        "lng": 133.166063,
        "genre": "見る/神社仏閣",
        "placeId": "77f49e42e51928c5747cd4497564f668fef08607"
    },
    {
        "name": "因島大橋記念公園",
        "lat": 34.355696,
        "lng": 133.173573,
        "genre": "見る/公園・庭園",
        "placeId": "e81053c01765008ce64e0f290bd7abb699373560"
    },
    {
        "name": "地蔵鼻",
        "lat": 34.298155,
        "lng": 133.209598,
        "genre": "見る/文化史跡",
        "placeId": "3d17408ff4b1f47799e49180012793ced7b687f5"
    },
    {
        "name": "本因坊秀策囲碁記念館",
        "lat": 34.328071,
        "lng": 133.18386,
        "genre": "見る/文化施設",
        "placeId": "ba4ffd25943935f33a6e6efacd3af32e318f1ed6"
    },
    {
        "name": "おのみち文学の館　文学記念室（旧福井家住宅）",
        "lat": 34.409437,
        "lng": 133.199389,
        "genre": "見る/文化施設",
        "placeId": "2ec8b5d1635360504496a7bde6d19cbbb26f3dc3"
    },
    {
        "name": "おのみち文学の館　志賀直哉旧居",
        "lat": 34.40872,
        "lng": 133.198889,
        "genre": "見る/文化施設",
        "placeId": "2ec8b5d1635360504496a7bde6d19cbbb26f3dc3"
    },
    {
        "name": "縮景園",
        "lat": 34.400111,
        "lng": 132.46734,
        "genre": "見る/公園・庭園",
        "placeId": "665110d4830e6fd7578521c188cd29e434f0f033"
    },
    {
        "name": "ひろしま遊学の森　広島県緑化センター",
        "lat": 34.434576,
        "lng": 132.565144,
        "genre": "見る/公園・庭園",
        "placeId": "1f5ed3add2f6a447d23e9332735cab98e84dd94a"
    },
    {
        "name": "ひろしま遊学の森　広島市森林公園（こんちゅう館）",
        "lat": 34.441393,
        "lng": 132.554137,
        "genre": "見る/文化施設",
        "placeId": "f7655d614c734c317e0291dfc5f296ca7328d40c"
    },
    {
        "name": "渝華園(中国庭園)",
        "lat": 34.400881,
        "lng": 132.453092,
        "genre": "見る/公園・庭園",
        "placeId": "f13dde60fc3fcc795a430f01cdfd0f850e00ff10"
    },
    {
        "name": "大芝公園｢交通ランド」",
        "lat": 34.418977,
        "lng": 132.46064,
        "genre": "見る/公園・庭園",
        "placeId": "76b3c3b2b4017a70285fe2b3dd7b4c02765f5190"
    },
    {
        "name": "広島市安佐動物公園",
        "lat": 34.496663,
        "lng": 132.442718,
        "genre": "見る/動・植物",
        "placeId": "fc1b4c1018f3cffb3a2177b437ee4922254a1d3a"
    },
    {
        "name": "花みどり公園",
        "lat": 34.509417,
        "lng": 132.413153,
        "genre": "見る/公園・庭園",
        "placeId": "396198b8e990074726554b29ab1959f12bce19de"
    },
    {
        "name": "広島市植物公園",
        "lat": 34.390706,
        "lng": 132.347438,
        "genre": "見る/動・植物",
        "placeId": "540a2bb73474a6dd31d267e82c433bdb328f243f"
    },
    {
        "name": "広島県立美術館",
        "lat": 34.399787,
        "lng": 132.466332,
        "genre": "見る/文化施設",
        "placeId": "b23071248bd7f846ba140c9df706c8ebd6905d30"
    },
    {
        "name": "広島市映像文化ライブラリー",
        "lat": 34.398848,
        "lng": 132.456972,
        "genre": "見る/文化施設",
        "placeId": "f5be3f1c7c5b9979ac7371366a6bc047b520acfc"
    },
    {
        "name": "ひろしま美術館",
        "lat": 34.39873,
        "lng": 132.45806,
        "genre": "見る/文化施設",
        "placeId": "1f83be312476e19153cd0e4b173f8231306598b2"
    },
    {
        "name": "5-Daysこども文化科学館（プラネタリウム）",
        "lat": 34.398642,
        "lng": 132.45379,
        "genre": "遊ぶ/文化施設",
        "placeId": "ef521eedfebb2b7652dbfdcaaea9adab3672bf85"
    },
    {
        "name": "広島城",
        "lat": 34.402712,
        "lng": 132.459047,
        "genre": "見る/文化施設",
        "placeId": "069511ddb9a85ba1f4583259154d31c143d730af"
    },
    {
        "name": "広島平和記念資料館",
        "lat": 34.391491,
        "lng": 132.45307,
        "genre": "見る/文化施設",
        "placeId": "d96cbf176d185c1252551174128dadaedb2edf19"
    },
    {
        "name": "国立広島原爆死没者追悼平和祈念館",
        "lat": 34.393011,
        "lng": 132.453371,
        "genre": "見る/文化施設",
        "placeId": "251c84778b4fe7b7feb29ed93edddb701de18383"
    },
    {
        "name": "公益財団法人放射線影響研究所",
        "lat": 34.382562,
        "lng": 132.472285,
        "genre": "遊ぶ/文化施設",
        "placeId": "17acbe9e2482d7376fad7c8bc163f40a2b1c0138"
    },
    {
        "name": "本川小学校平和資料館",
        "lat": 34.396207,
        "lng": 132.450861,
        "genre": "見る/文化施設",
        "placeId": "26b532f0b7177b8f4df4a8839f68e0983ebb0ea5"
    },
    {
        "name": "袋町小学校平和資料館",
        "lat": 34.391552,
        "lng": 132.458247,
        "genre": "見る/文化施設",
        "placeId": "976056028633f3a581d98947d82e3e217462c075"
    },
    {
        "name": "広島市健康づくりセンター健康科学館",
        "lat": 34.376321,
        "lng": 132.457266,
        "genre": "遊ぶ/文化施設",
        "placeId": "fe0821db56750acb10c5bb3d9403dc6d21463592"
    },
    {
        "name": "広島市江波山気象館",
        "lat": 34.366226,
        "lng": 132.434982,
        "genre": "遊ぶ/文化施設",
        "placeId": "803ba46ae22c46298bad0bcd2b39d49cbda7d621"
    },
    {
        "name": "頼山陽史跡資料館",
        "lat": 34.391491,
        "lng": 132.457244,
        "genre": "見る/文化施設",
        "placeId": "4cf367e15b64c7a7e4255db03b1017e536ec8cf4"
    },
    {
        "name": "広島市現代美術館",
        "lat": 34.386371,
        "lng": 132.473327,
        "genre": "見る/文化施設",
        "placeId": "6bc5abdb65e5613f63f4dc9ac483995a3fea7ad8"
    },
    {
        "name": "広島市郷土資料館",
        "lat": 34.365983,
        "lng": 132.461845,
        "genre": "見る/文化施設",
        "placeId": "a59b24050373c43775b8bc90e998e1c1e8904481"
    },
    {
        "name": "広島大学医学部医学資料館",
        "lat": 34.380563,
        "lng": 132.477393,
        "genre": "見る/文化施設",
        "placeId": "8fc5657ef35390c38037c47293a9a12687e5a34d"
    },
    {
        "name": "ヌマジ交通ミュージアム（広島市交通科学館）",
        "lat": 34.470698,
        "lng": 132.428201,
        "genre": "遊ぶ/文化施設",
        "placeId": "3383a5bbb70abfa30744a2f34a0ad6ab48b70c62"
    },
    {
        "name": "泉美術館",
        "lat": 34.373346,
        "lng": 132.399019,
        "genre": "見る/文化施設",
        "placeId": "36849389015f2a707fddc1528f9bc2e41c2d68c9"
    },
    {
        "name": "広島市まんが図書館",
        "lat": 34.387747,
        "lng": 132.474454,
        "genre": "見る/文化施設",
        "placeId": "667794cf76e0fb1da6a537a6ea50c118eb2a537d"
    },
    {
        "name": "広島市まんが図書館あさ閲覧室",
        "lat": 34.476217,
        "lng": 132.444885,
        "genre": "見る/文化施設",
        "placeId": "288e009823d84919b6b645a7ceec06a52a42e797"
    },
    {
        "name": "広島市水産振興センター(魚と漁業の資料展示室)",
        "lat": 34.362265,
        "lng": 132.380713,
        "genre": "見る/文化施設",
        "placeId": "45c32ab5c1808882a99542fefa05f204d96e53a2"
    },
    {
        "name": "広島市水道資料館",
        "lat": 34.417593,
        "lng": 132.467201,
        "genre": "見る/文化施設",
        "placeId": "5fa4e440a6097f4837903c3151f4db04b67ec0b8"
    },
    {
        "name": "マツダミュージアム(マツダ株式会社)",
        "lat": 34.377057,
        "lng": 132.503011,
        "genre": "遊ぶ/文化施設",
        "placeId": "d5b9853ad12d53f081f178c18725f7a0b62ccf98"
    },
    {
        "name": "おりづるタワー",
        "lat": 34.395671,
        "lng": 132.454692,
        "genre": "遊ぶ/文化施設",
        "placeId": "ef68e8a53888f18882da6c1f59171a30ff60ae5d"
    }
]